markers = [
   {
     "name": "住所：愛知県豊田市トヨタ町1番地",
     "url": "",
	 "info":"社名：トヨタ自動車株式会社-本社工場",
     "lat": 35.055242,
     "lng": 137.160913
   },
   {
     "name": "住所：愛知県豊田市元町1番地",
     "url": "",
	 "info":"社名：トヨタ自動車株式会社-元町工場",
     "lat": 35.080967,
     "lng": 137.158615
   },
   {
     "name": "住所：愛知県豊田市大成町1番地",
     "url": "",
	 "info":"社名：トヨタ自動車株式会社-上郷工場",
     "lat": 35.080992,
     "lng": 137.158120
   },
   {
     "name": "住所：愛知県豊田市本田町三光1番地",
     "url": "",
	 "info":"社名：トヨタ自動車株式会社-高岡工場",
     "lat": 35.080956,
     "lng": 137.158749
   },
   {
     "name": "住所：愛知県みよし市打越町並木1番地",
     "url": "",
	 "info":"社名：トヨタ自動車株式会社-三好工場",
     "lat": 35.083328,
     "lng": 137.066666
   },
   {
     "name": "住所：愛知県豊田市堤町馬の頭1",
     "url": "",
	 "info":"社名：トヨタ自動車株式会社-堤工場",
     "lat": 35.052399,
     "lng": 137.089294

   },
   {
     "name": "住所：愛知県みよし市明知町西山1番地",
     "url": "",
	 "info":"社名：トヨタ自動車株式会社-明知工場",
     "lat": 35.083277,
     "lng": 137.066803
   },
   {
     "name": "住所：愛知県みよし市打越町下山1番地",
     "url": "",
	 "info":"社名：トヨタ自動車株式会社-下山工場",
     "lat": 35.083375,
     "lng": 137.066594
   },
	
	 {
     "name": "住所：愛知県丹羽郡大口町下小口5-25-1",
     "url": "",
	 "info":"社名：オークマ株式会社-本社",
     "lat": 35.337100,
     "lng": 136.912600

   },
   {
     "name": "住所：愛知県丹羽郡大口町竹田1-131",
     "url": "",
	 "info":"社名：ヤマザキマザック株式会社-本社",
     "lat": 35.311764,
     "lng": 136.902008
   },
   {
     "name": "住所：愛知県丹羽郡大口町豊田3丁目260番地",
     "url": "",
	 "info":"社名：株式会社東海理化電機製作所-本社",
     "lat": 35.309300,
     "lng": 136.890200
   },
   {
     "name": "住所：愛知県碧南市玉津浦町10番地1",
     "url": "",
	 "info":"社名：衣浦工場",
     "lat": 34.856469,
     "lng": 136.962956
   },
   {
     "name": "住所：愛知県刈谷市豊田町2丁目1番地",
     "url": "",
	 "info":"社名：株式会社豊田自動織機",
     "lat": 34.994204,
     "lng": 136.997007
   }
];


